File: 1552451, $GPGGA,092546.00,3408.36480667,N,12607.64665281,E,4,33,0.5,19.087,M,18.317,M,16.0,4715*4A, 09:25:44.20
File: 1552452, $GPGGA,092546.60,3408.36475305,N,12607.64735510,E,4,33,0.5,19.219,M,18.317,M,16.6,4715*4F, 09:25:44.79
File: 1552453, $GPGGA,092547.10,3408.36473651,N,12607.64809324,E,4,33,0.5,19.258,M,18.317,M,17.1,4715*49, 09:25:45.27
File: 1552454, $GPGGA,092547.50,3408.36476768,N,12607.64873773,E,4,33,0.5,19.182,M,18.317,M,17.5,4715*48, 09:25:45.77
File: 1552455, $GPGGA,092548.00,3408.36484517,N,12607.64947756,E,4,33,0.5,19.041,M,18.317,M,18.0,4715*40, 09:25:46.27
File: 1552456, $GPGGA,092548.60,3408.36495669,N,12607.65016867,E,4,33,0.5,18.919,M,18.317,M,18.6,4715*4E, 09:25:46.79
File: 1552457, $GPGGA,092549.10,3408.36501357,N,12607.65065831,E,4,33,0.5,18.983,M,18.317,M,19.1,4715*4E, 09:25:47.27
File: 1552458, $GPGGA,092549.60,3408.36504026,N,12607.65120827,E,4,33,0.5,19.089,M,18.317,M,19.6,4715*4B, 09:25:47.87
File: 1552459, $GPGGA,092550.10,3408.36503859,N,12607.65188667,E,4,33,0.5,19.177,M,18.317,M,16.1,4715*43, 09:25:48.37
File: 1552460, $GPGGA,092550.60,3408.36502120,N,12607.65264252,E,4,33,0.5,19.177,M,18.317,M,16.6,4715*46, 09:25:48.79
File: 1552461, $GPGGA,092551.10,3408.36501851,N,12607.65336819,E,4,33,0.5,19.086,M,18.317,M,17.1,4715*46, 09:25:49.27
File: 1552462, $GPGGA,092551.60,3408.36504742,N,12607.65401111,E,4,33,0.5,19.016,M,18.317,M,17.6,4715*45, 09:25:49.79
File: 1552463, $GPGGA,092552.10,3408.36509429,N,12607.65462330,E,4,33,0.5,19.011,M,18.317,M,18.1,4715*49, 09:25:50.27
File: 1552464, $GPGGA,092552.60,3408.36511723,N,12607.65525895,E,4,33,0.5,19.051,M,18.318,M,18.6,4715*44, 09:25:50.79
File: 1552465, $GPGGA,092553.10,3408.36511104,N,12607.65594844,E,4,33,0.5,19.064,M,18.318,M,19.1,4715*47, 09:25:51.27
File: 1552466, $GPGGA,092553.60,3408.36511434,N,12607.65661732,E,4,33,0.5,19.073,M,18.318,M,19.6,4715*40, 09:25:51.79
File: 1552467, $GPGGA,092554.10,3408.36516475,N,12607.65719768,E,4,33,0.5,19.094,M,18.318,M,16.1,4715*42, 09:25:52.27
File: 1552468, $GPGGA,092554.60,3408.36524258,N,12607.65774917,E,4,33,0.5,19.142,M,18.318,M,16.6,4715*4D, 09:25:52.87
File: 1552469, $GPGGA,092555.10,3408.36531608,N,12607.65840851,E,4,33,0.5,19.192,M,18.318,M,17.1,4715*4E, 09:25:53.37
File: 1552470, $GPGGA,092555.60,3408.36536414,N,12607.65921446,E,4,33,0.5,19.167,M,18.318,M,17.6,4715*40, 09:25:53.79
File: 1552471, $GPGGA,092556.10,3408.36540072,N,12607.66007243,E,4,33,0.5,19.026,M,18.318,M,18.1,4715*40, 09:25:54.37
File: 1552472, $GPGGA,092556.60,3408.36543427,N,12607.66080789,E,4,33,0.5,18.882,M,18.318,M,18.6,4715*4C, 09:25:54.87
File: 1552473, $GPGGA,092557.10,3408.36545930,N,12607.66131621,E,4,33,0.5,18.831,M,18.318,M,19.1,4715*41, 09:25:55.27
File: 1552474, $GPGGA,092557.70,3408.36542993,N,12607.66176709,E,4,33,0.5,18.911,M,18.318,M,15.7,4715*48, 09:25:55.87
File: 1552475, $GPGGA,092558.10,3408.36537368,N,12607.66214282,E,4,33,0.5,18.994,M,18.318,M,16.1,4715*44, 09:25:56.37
File: 1552476, $GPGGA,092558.60,3408.36531852,N,12607.66282498,E,4,33,0.5,19.060,M,18.318,M,16.6,4715*41, 09:25:56.79
File: 1552477, $GPGGA,092559.20,3408.36535486,N,12607.66391399,E,4,33,0.5,18.977,M,18.318,M,17.2,4715*4B, 09:25:57.39
File: 1552478, $GPGGA,092559.60,3408.36544704,N,12607.66465463,E,4,33,0.5,18.876,M,18.318,M,17.6,4715*4A, 09:25:57.79
File: 1552479, $GPGGA,092600.10,3408.36560405,N,12607.66541677,E,4,33,0.5,18.822,M,18.318,M,18.1,4715*4F, 09:25:58.37
File: 1552480, $GPGGA,092600.70,3408.36576668,N,12607.66607821,E,4,33,0.5,18.991,M,18.318,M,18.7,4715*44, 09:25:58.87
File: 1552481, $GPGGA,092601.20,3408.36583056,N,12607.66657009,E,4,33,0.5,19.231,M,18.318,M,19.2,4715*42, 09:25:59.39
File: 1552482, $GPGGA,092601.60,3408.36580900,N,12607.66701590,E,4,33,0.5,19.375,M,18.318,M,15.6,4715*41, 09:25:59.87
File: 1552483, $GPGGA,092602.10,3408.36571446,N,12607.66770688,E,4,33,0.5,19.419,M,18.318,M,16.1,4715*41, 09:26:00.27
File: 1552484, $GPGGA,092602.60,3408.36563458,N,12607.66848382,E,4,33,0.5,19.307,M,18.318,M,16.6,4715*4E, 09:26:00.79
File: 1552485, $GPGGA,092603.00,3408.36562877,N,12607.66907454,E,4,33,0.5,19.180,M,18.318,M,17.0,4715*45, 09:26:01.27
File: 1552486, $GPGGA,092603.50,3408.36569881,N,12607.66970561,E,4,33,0.5,19.115,M,18.318,M,17.5,4715*4C, 09:26:01.77
File: 1552487, $GPGGA,092604.00,3408.36580013,N,12607.67029743,E,4,33,0.5,19.138,M,18.318,M,18.0,4715*49, 09:26:02.27
File: 1552488, $GPGGA,092604.50,3408.36586763,N,12607.67094103,E,4,33,0.5,19.171,M,18.318,M,18.5,4715*46, 09:26:02.77
File: 1552489, $GPGGA,092605.00,3408.36588319,N,12607.67167775,E,4,33,0.5,19.129,M,18.318,M,19.0,4715*46, 09:26:03.19
File: 1552490, $GPGGA,092605.50,3408.36590922,N,12607.67245479,E,4,33,0.5,19.003,M,18.318,M,15.5,4715*44, 09:26:03.67
File: 1552491, $GPGGA,092606.00,3408.36601034,N,12607.67317216,E,4,33,0.5,18.856,M,18.318,M,16.0,4715*41, 09:26:04.19
File: 1552492, $GPGGA,092606.40,3408.36612986,N,12607.67367950,E,4,33,0.5,18.797,M,18.318,M,16.4,4715*4F, 09:26:04.67
File: 1552493, $GPGGA,092606.90,3408.36625296,N,12607.67428283,E,4,33,0.5,18.854,M,18.318,M,16.9,4715*48, 09:26:05.17
File: 1552494, $GPGGA,092607.50,3408.36624403,N,12607.67503969,E,4,33,0.5,18.996,M,18.318,M,17.5,4715*4B, 09:26:05.67
File: 1552495, $GPGGA,092607.90,3408.36614625,N,12607.67560551,E,4,33,0.5,19.031,M,18.318,M,17.9,4715*49, 09:26:06.17
File: 1552496, $GPGGA,092608.40,3408.36599551,N,12607.67635357,E,4,33,0.5,18.988,M,18.318,M,18.4,4715*46, 09:26:06.59
File: 1552497, $GPGGA,092608.90,3408.36591829,N,12607.67702358,E,4,33,0.5,18.909,M,18.318,M,18.9,4715*4F, 09:26:07.07
File: 1552498, $GPGGA,092609.40,3408.36597593,N,12607.67756596,E,4,33,0.5,18.899,M,18.318,M,15.4,4715*44, 09:26:07.67
File: 1552499, $GPGGA,092609.90,3408.36615027,N,12607.67807928,E,4,33,0.5,19.019,M,18.318,M,15.9,4715*44, 09:26:08.17
File: 1552500, $GPGGA,092610.40,3408.36637394,N,12607.67870070,E,4,33,0.5,19.186,M,18.318,M,16.4,4715*47, 09:26:08.67
File: 1552501, $GPGGA,092610.90,3408.36654227,N,12607.67948158,E,4,33,0.5,19.248,M,18.318,M,16.9,4715*4B, 09:26:09.17
File: 1552502, $GPGGA,092611.30,3408.36658495,N,12607.68020273,E,4,33,0.5,19.205,M,18.318,M,17.3,4715*43, 09:26:09.57
File: 1552503, $GPGGA,092611.80,3408.36651721,N,12607.68108093,E,4,33,0.5,19.069,M,18.318,M,17.8,4715*49, 09:26:10.07
File: 1552504, $GPGGA,092612.30,3408.36637337,N,12607.68178581,E,4,33,0.5,18.951,M,18.318,M,18.3,4715*44, 09:26:10.57
File: 1552505, $GPGGA,092612.80,3408.36626996,N,12607.68229442,E,4,33,0.5,18.999,M,18.319,M,18.8,4715*49, 09:26:11.07
File: 1552506, $GPGGA,092613.30,3408.36626654,N,12607.68274514,E,4,33,0.5,19.189,M,18.319,M,15.3,4715*46, 09:26:11.57
File: 1552507, $GPGGA,092613.80,3408.36635357,N,12607.68331340,E,4,33,0.5,19.391,M,18.319,M,15.8,4715*4E, 09:26:12.07
File: 1552508, $GPGGA,092614.20,3408.36644923,N,12607.68390380,E,4,33,0.5,19.463,M,18.319,M,16.2,4715*48, 09:26:12.47
File: 1552509, $GPGGA,092614.70,3408.36655965,N,12607.68475070,E,4,33,0.5,19.373,M,18.319,M,16.7,4715*4C, 09:26:12.87
File: 1552510, $GPGGA,092615.20,3408.36664193,N,12607.68556934,E,4,33,0.5,19.168,M,18.319,M,17.2,4715*4E, 09:26:13.39
File: 1552511, $GPGGA,092615.60,3408.36670780,N,12607.68613181,E,4,33,0.5,19.010,M,18.319,M,17.6,4715*45, 09:26:13.87
File: 1552512, $GPGGA,092616.10,3408.36675255,N,12607.68673336,E,4,33,0.5,18.939,M,18.319,M,18.1,4715*4A, 09:26:14.37
File: 1552513, $GPGGA,092616.60,3408.36672697,N,12607.68731967,E,4,33,0.5,18.961,M,18.319,M,18.6,4715*43, 09:26:14.87
File: 1552514, $GPGGA,092617.10,3408.36665451,N,12607.68796287,E,4,33,0.5,19.023,M,18.319,M,19.1,4715*4B, 09:26:15.27
File: 1552515, $GPGGA,092617.60,3408.36660209,N,12607.68867425,E,4,33,0.5,19.035,M,18.319,M,15.6,4715*41, 09:26:15.79
File: 1552516, $GPGGA,092618.00,3408.36662636,N,12607.68926356,E,4,33,0.5,18.974,M,18.319,M,16.0,4715*4D, 09:26:16.27
File: 1552517, $GPGGA,092618.50,3408.36672393,N,12607.68998676,E,4,33,0.5,18.867,M,18.319,M,16.5,4715*47, 09:26:16.77
File: 1552518, $GPGGA,092619.00,3408.36683031,N,12607.69067751,E,4,33,0.5,18.824,M,18.319,M,17.0,4715*49, 09:26:17.27
File: 1552519, $GPGGA,092619.50,3408.36689663,N,12607.69132901,E,4,33,0.5,18.922,M,18.319,M,17.5,4715*4F, 09:26:17.67
File: 1552520, $GPGGA,092620.00,3408.36691010,N,12607.69193441,E,4,33,0.5,19.069,M,18.319,M,18.0,4715*44, 09:26:18.27
File: 1552521, $GPGGA,092620.50,3408.36684981,N,12607.69252907,E,4,33,0.5,19.192,M,18.319,M,18.5,4715*45, 09:26:18.77
File: 1552522, $GPGGA,092621.00,3408.36672760,N,12607.69317882,E,4,33,0.5,19.224,M,18.319,M,19.0,4715*4F, 09:26:19.27
File: 1552523, $GPGGA,092621.50,3408.36660913,N,12607.69392261,E,4,33,0.5,19.103,M,18.319,M,15.5,4715*46, 09:26:19.67
File: 1552524, $GPGGA,092622.00,3408.36659041,N,12607.69473850,E,4,33,0.5,18.936,M,18.319,M,16.0,4715*4D, 09:26:20.19
File: 1552525, $GPGGA,092622.40,3408.36668280,N,12607.69537815,E,4,33,0.5,18.845,M,18.319,M,16.4,4715*45, 09:26:20.59
File: 1552526, $GPGGA,092622.90,3408.36689268,N,12607.69608279,E,4,33,0.5,18.893,M,18.319,M,16.9,4715*48, 09:26:21.07
File: 1552527, $GPGGA,092623.40,3408.36710493,N,12607.69667091,E,4,33,0.5,19.107,M,18.319,M,17.4,4715*43, 09:26:21.59
File: 1552528, $GPGGA,092623.80,3408.36719738,N,12607.69709052,E,4,33,0.5,19.326,M,18.319,M,17.8,4715*4F, 09:26:22.07
File: 1552529, $GPGGA,092624.30,3408.36716778,N,12607.69765793,E,4,33,0.5,19.554,M,18.319,M,18.3,4715*4F, 09:26:22.47
File: 1552530, $GPGGA,092624.80,3408.36700875,N,12607.69835642,E,4,33,0.5,19.601,M,18.319,M,18.8,4715*4E, 09:26:22.99
File: 1552531, $GPGGA,092625.20,3408.36685461,N,12607.69899762,E,4,33,0.5,19.494,M,18.319,M,15.2,4715*4C, 09:26:23.39
File: 1552532, $GPGGA,092625.60,3408.36674001,N,12607.69965217,E,4,33,0.5,19.297,M,18.319,M,15.6,4715*40, 09:26:23.87
File: 1552533, $GPGGA,092626.10,3408.36672638,N,12607.70042210,E,4,33,0.5,19.060,M,18.319,M,16.1,4715*43, 09:26:24.37
File: 1552534, $GPGGA,092626.60,3408.36686009,N,12607.70110872,E,4,33,0.5,18.926,M,18.319,M,16.6,4715*4E, 09:26:24.87
File: 1552535, $GPGGA,092627.10,3408.36706464,N,12607.70175484,E,4,33,0.5,18.904,M,18.319,M,17.1,4715*4E, 09:26:25.27
File: 1552536, $GPGGA,092627.60,3408.36722058,N,12607.70241480,E,4,33,0.5,18.880,M,18.319,M,17.6,4715*4E, 09:26:25.79
File: 1552537, $GPGGA,092628.00,3408.36725022,N,12607.70295352,E,4,33,0.5,18.854,M,18.319,M,18.0,4715*4C, 09:26:26.27
File: 1552538, $GPGGA,092628.50,3408.36717815,N,12607.70362300,E,4,33,0.5,18.774,M,18.319,M,18.5,4715*42, 09:26:26.77
File: 1552539, $GPGGA,092629.00,3408.36706182,N,12607.70427885,E,4,33,0.5,18.710,M,18.319,M,15.0,4715*4B, 09:26:27.19
File: 1552540, $GPGGA,092629.50,3408.36695205,N,12607.70495251,E,4,33,0.5,18.742,M,18.319,M,15.5,4715*41, 09:26:27.67
File: 1552541, $GPGGA,092630.00,3408.36688469,N,12607.70564624,E,4,33,0.5,18.878,M,18.319,M,16.0,4715*45, 09:26:28.19
File: 1552542, $GPGGA,092630.40,3408.36687683,N,12607.70620445,E,4,33,0.5,19.027,M,18.319,M,16.4,4715*49, 09:26:28.67
File: 1552543, $GPGGA,092630.90,3408.36692175,N,12607.70688421,E,4,33,0.5,19.175,M,18.319,M,16.9,4715*45, 09:26:29.17
File: 1552544, $GPGGA,092631.40,3408.36700633,N,12607.70756847,E,4,33,0.5,19.252,M,18.319,M,17.4,4715*42, 09:26:29.67
File: 1552545, $GPGGA,092631.90,3408.36709056,N,12607.70828633,E,4,33,0.5,19.228,M,18.319,M,17.9,4715*48, 09:26:30.07
File: 1552546, $GPGGA,092632.30,3408.36712974,N,12607.70888252,E,4,33,0.5,19.209,M,18.319,M,18.3,4715*4D, 09:26:30.57
File: 1552547, $GPGGA,092632.80,3408.36713229,N,12607.70963810,E,4,33,0.5,19.215,M,18.319,M,14.8,4715*46, 09:26:30.99
File: 1552548, $GPGGA,092633.30,3408.36709909,N,12607.71037320,E,4,33,0.5,19.259,M,18.320,M,15.3,4715*47, 09:26:31.47
File: 1552549, $GPGGA,092633.70,3408.36706118,N,12607.71093549,E,4,33,0.5,19.301,M,18.320,M,15.7,4715*4B, 09:26:31.97
File: 1552550, $GPGGA,092634.20,3408.36701179,N,12607.71158811,E,4,33,0.5,19.323,M,18.320,M,16.2,4715*49, 09:26:32.39
File: 1552551, $GPGGA,092634.60,3408.36698287,N,12607.71207590,E,4,33,0.5,19.310,M,18.320,M,16.6,4715*47, 09:26:32.87
File: 1552552, $GPGGA,092635.10,3408.36696548,N,12607.71270094,E,4,33,0.5,19.239,M,18.320,M,17.1,4715*46, 09:26:33.27
File: 1552553, $GPGGA,092635.60,3408.36696620,N,12607.71339308,E,4,33,0.5,19.105,M,18.320,M,17.6,4715*4D, 09:26:33.79
File: 1552554, $GPGGA,092636.00,3408.36698632,N,12607.71399725,E,4,33,0.5,19.005,M,18.320,M,18.0,4715*4C, 09:26:34.27
File: 1552555, $GPGGA,092636.50,3408.36701346,N,12607.71479722,E,4,33,0.5,18.884,M,18.320,M,18.5,4715*45, 09:26:34.67
File: 1552556, $GPGGA,092637.00,3408.36703347,N,12607.71557814,E,4,33,0.5,18.764,M,18.320,M,15.0,4715*4C, 09:26:35.19
File: 1552557, $GPGGA,092637.40,3408.36704129,N,12607.71613688,E,4,33,0.5,18.718,M,18.320,M,15.4,4715*42, 09:26:35.67
File: 1552558, $GPGGA,092637.90,3408.36704587,N,12607.71674480,E,4,33,0.5,18.746,M,18.320,M,15.9,4715*42, 09:26:36.17
File: 1552559, $GPGGA,092638.40,3408.36704549,N,12607.71732673,E,4,33,0.5,18.826,M,18.320,M,16.4,4715*48, 09:26:36.67
File: 1552560, $GPGGA,092638.90,3408.36703572,N,12607.71797778,E,4,33,0.5,18.924,M,18.320,M,16.9,4715*41, 09:26:37.17
File: 1552561, $GPGGA,092639.40,3408.36700858,N,12607.71871589,E,4,33,0.5,19.031,M,18.320,M,17.4,4715*40, 09:26:37.59
File: 1552562, $GPGGA,092639.80,3408.36695409,N,12607.71933605,E,4,33,0.5,19.079,M,18.320,M,17.8,4715*49, 09:26:38.07
File: 1552563, $GPGGA,092640.30,3408.36685467,N,12607.72009168,E,4,33,0.5,19.093,M,18.320,M,18.3,4715*4A, 09:26:38.57
File: 1552564, $GPGGA,092640.80,3408.36675429,N,12607.72081097,E,4,33,0.5,19.063,M,18.320,M,14.8,4715*4D, 09:26:38.99
File: 1552565, $GPGGA,092641.20,3408.36671112,N,12607.72137404,E,4,33,0.5,19.044,M,18.320,M,15.2,4715*43, 09:26:39.47
File: 1552566, $GPGGA,092641.70,3408.36672601,N,12607.72206501,E,4,33,0.5,19.045,M,18.320,M,15.7,4715*41, 09:26:39.87
File: 1552567, $GPGGA,092642.10,3408.36678761,N,12607.72261090,E,4,33,0.5,19.092,M,18.320,M,16.1,4715*4A, 09:26:40.37
File: 1552568, $GPGGA,092642.60,3408.36690909,N,12607.72328800,E,4,33,0.5,19.183,M,18.320,M,16.6,4715*40, 09:26:40.79
File: 1552569, $GPGGA,092643.00,3408.36698964,N,12607.72383026,E,4,33,0.5,19.241,M,18.320,M,17.0,4715*43, 09:26:41.27
File: 1552570, $GPGGA,092643.50,3408.36698474,N,12607.72451641,E,4,33,0.5,19.271,M,18.320,M,17.5,4715*43, 09:26:41.77
File: 1552571, $GPGGA,092644.00,3408.36685256,N,12607.72524037,E,4,33,0.5,19.232,M,18.320,M,18.0,4715*42, 09:26:42.19
File: 1552572, $GPGGA,092644.40,3408.36670282,N,12607.72584339,E,4,33,0.5,19.152,M,18.320,M,18.4,4715*43, 09:26:42.60
File: 1552573, $GPGGA,092644.90,3408.36656182,N,12607.72661283,E,4,33,0.5,19.018,M,18.320,M,14.9,4715*4F, 09:26:43.07
File: 1552574, $GPGGA,092645.30,3408.36654129,N,12607.72721679,E,4,33,0.5,18.935,M,18.320,M,15.3,4715*4F, 09:26:43.57
File: 1552575, $GPGGA,092645.80,3408.36662136,N,12607.72792639,E,4,33,0.5,18.919,M,18.320,M,15.8,4715*46, 09:26:44.07
File: 1552576, $GPGGA,092646.30,3408.36674447,N,12607.72856785,E,4,33,0.5,19.007,M,18.320,M,16.3,4715*44, 09:26:44.47
File: 1552577, $GPGGA,092646.80,3408.36681074,N,12607.72916671,E,4,33,0.5,19.135,M,18.320,M,16.8,4715*45, 09:26:44.99
File: 1552578, $GPGGA,092647.20,3408.36680201,N,12607.72964989,E,4,33,0.5,19.218,M,18.320,M,17.2,4715*45, 09:26:45.47
File: 1552579, $GPGGA,092647.70,3408.36669785,N,12607.73031243,E,4,33,0.5,19.253,M,18.320,M,17.7,4715*41, 09:26:45.87
File: 1552580, $GPGGA,092648.20,3408.36655081,N,12607.73108579,E,4,33,0.5,19.147,M,18.320,M,18.2,4715*4E, 09:26:46.39
File: 1552581, $GPGGA,092648.60,3408.36645176,N,12607.73176283,E,4,33,0.5,18.962,M,18.320,M,14.6,4715*4F, 09:26:46.87
File: 1552582, $GPGGA,092649.10,3408.36640745,N,12607.73260157,E,4,33,0.5,18.742,M,18.320,M,15.1,4715*4E, 09:26:47.37
File: 1552583, $GPGGA,092649.60,3408.36645175,N,12607.73330129,E,4,33,0.5,18.642,M,18.320,M,15.6,4715*42, 09:26:47.79
File: 1552584, $GPGGA,092650.00,3408.36652615,N,12607.73372350,E,4,33,0.5,18.709,M,18.320,M,16.0,4715*4A, 09:26:48.27
File: 1552585, $GPGGA,092650.50,3408.36660245,N,12607.73414869,E,4,33,0.5,18.891,M,18.320,M,16.5,4715*42, 09:26:48.77
File: 1552586, $GPGGA,092651.00,3408.36659163,N,12607.73469893,E,4,33,0.5,19.162,M,18.320,M,17.0,4715*44, 09:26:49.27
File: 1552587, $GPGGA,092651.50,3408.36646570,N,12607.73550078,E,4,33,0.5,19.217,M,18.320,M,17.5,4715*4B, 09:26:49.67
File: 1552588, $GPGGA,092651.90,3408.36632010,N,12607.73627823,E,4,33,0.5,19.150,M,18.320,M,17.9,4715*4E, 09:26:50.17
File: 1552589, $GPGGA,092652.40,3408.36617085,N,12607.73722683,E,4,33,0.5,19.005,M,18.320,M,14.4,4715*44, 09:26:50.59
File: 1552590, $GPGGA,092652.80,3408.36613156,N,12607.73782843,E,4,33,0.5,18.961,M,18.320,M,14.8,4715*4D, 09:26:51.07
File: 1552591, $GPGGA,092653.30,3408.36620729,N,12607.73835434,E,4,33,0.5,19.077,M,18.320,M,15.3,4715*43, 09:26:51.57
File: 1552592, $GPGGA,092653.80,3408.36636301,N,12607.73878466,E,4,33,0.5,19.294,M,18.321,M,15.8,4715*4A, 09:26:52.07
File: 1552593, $GPGGA,092654.20,3408.36647555,N,12607.73921475,E,4,33,0.5,19.451,M,18.321,M,16.2,4715*4F, 09:26:52.47
File: 1552594, $GPGGA,092654.70,3408.36650580,N,12607.73994903,E,4,33,0.5,19.550,M,18.321,M,16.7,4715*43, 09:26:52.87
File: 1552595, $GPGGA,092655.20,3408.36639911,N,12607.74083380,E,4,33,0.5,19.473,M,18.321,M,17.2,4715*41, 09:26:53.39
File: 1552596, $GPGGA,092655.60,3408.36626304,N,12607.74153923,E,4,33,0.5,19.296,M,18.321,M,17.6,4715*43, 09:26:53.79
File: 1552597, $GPGGA,092656.00,3408.36613292,N,12607.74216911,E,4,33,0.5,19.108,M,18.321,M,18.0,4715*40, 09:26:54.27
File: 1552598, $GPGGA,092656.50,3408.36601928,N,12607.74281860,E,4,33,0.5,18.935,M,18.321,M,14.5,4715*4B, 09:26:54.67
File: 1552599, $GPGGA,092657.00,3408.36599969,N,12607.74337931,E,4,33,0.5,18.876,M,18.321,M,15.0,4715*43, 09:26:55.19
File: 1552600, $GPGGA,092657.50,3408.36608002,N,12607.74393304,E,4,33,0.5,18.879,M,18.321,M,15.5,4715*41, 09:26:55.77
File: 1552601, $GPGGA,092658.00,3408.36620824,N,12607.74455427,E,4,33,0.5,18.888,M,18.321,M,16.0,4715*4E, 09:26:56.19
File: 1552602, $GPGGA,092658.40,3408.36628613,N,12607.74511116,E,4,33,0.5,18.891,M,18.321,M,16.4,4715*42, 09:26:56.67
File: 1552603, $GPGGA,092658.90,3408.36631017,N,12607.74582545,E,4,33,0.5,18.888,M,18.321,M,16.9,4715*48, 09:26:57.17
File: 1552604, $GPGGA,092659.40,3408.36622969,N,12607.74653544,E,4,33,0.5,18.942,M,18.321,M,17.4,4715*43, 09:26:57.60
File: 1552605, $GPGGA,092659.90,3408.36608872,N,12607.74728107,E,4,33,0.5,19.027,M,18.321,M,17.9,4715*45, 09:26:58.17
File: 1552606, $GPGGA,092700.40,3408.36596960,N,12607.74805331,E,4,33,0.5,19.126,M,18.321,M,14.4,4715*4A, 09:26:58.59
File: 1552607, $GPGGA,092700.80,3408.36592124,N,12607.74865781,E,4,33,0.5,19.189,M,18.321,M,14.8,4715*4A, 09:26:58.99
File: 1552608, $GPGGA,092701.30,3408.36592961,N,12607.74934337,E,4,33,0.5,19.226,M,18.321,M,15.3,4715*49, 09:26:59.47
File: 1552609, $GPGGA,092701.70,3408.36597298,N,12607.74983403,E,4,33,0.5,19.210,M,18.321,M,15.7,4715*48, 09:26:59.97
File: 1552610, $GPGGA,092702.20,3408.36601641,N,12607.75041316,E,4,33,0.5,19.162,M,18.321,M,16.2,4715*47, 09:27:00.39
File: 1552611, $GPGGA,092702.60,3408.36602207,N,12607.75090005,E,4,33,0.5,19.095,M,18.321,M,16.6,4715*46, 09:27:00.87
File: 1552612, $GPGGA,092703.10,3408.36600803,N,12607.75157204,E,4,33,0.5,19.031,M,18.321,M,17.1,4715*4D, 09:27:01.27
File: 1552613, $GPGGA,092703.50,3408.36600307,N,12607.75216522,E,4,33,0.5,19.009,M,18.321,M,17.5,4715*4C, 09:27:01.77
File: 1552614, $GPGGA,092704.00,3408.36602526,N,12607.75294813,E,4,33,0.5,19.008,M,18.321,M,18.0,4715*47, 09:27:02.19
File: 1552615, $GPGGA,092704.40,3408.36604820,N,12607.75358481,E,4,33,0.5,19.020,M,18.321,M,14.4,4715*4A, 09:27:02.59
File: 1552616, $GPGGA,092704.80,3408.36606141,N,12607.75420392,E,4,33,0.5,19.027,M,18.321,M,14.8,4715*4C, 09:27:03.07
File: 1552617, $GPGGA,092705.30,3408.36605844,N,12607.75491762,E,4,33,0.5,19.051,M,18.321,M,15.3,4715*43, 09:27:03.57
File: 1552618, $GPGGA,092705.80,3408.36603787,N,12607.75556062,E,4,33,0.5,19.116,M,18.321,M,15.8,4715*4A, 09:27:04.07
File: 1552619, $GPGGA,092706.30,3408.36598756,N,12607.75616113,E,4,33,0.5,19.219,M,18.321,M,16.3,4715*4B, 09:27:04.57
File: 1552620, $GPGGA,092706.80,3408.36591268,N,12607.75679745,E,4,33,0.5,19.335,M,18.321,M,16.8,4715*49, 09:27:04.99
File: 1552621, $GPGGA,092707.30,3408.36585372,N,12607.75753248,E,4,33,0.5,19.362,M,18.321,M,17.3,4715*45, 09:27:05.47
File: 1552622, $GPGGA,092707.70,3408.36584643,N,12607.75816793,E,4,33,0.5,19.324,M,18.321,M,17.7,4715*4C, 09:27:05.97
File: 1552623, $GPGGA,092708.20,3408.36589258,N,12607.75894716,E,4,33,0.5,19.222,M,18.321,M,18.2,4715*4F, 09:27:06.47
File: 1552624, $GPGGA,092708.70,3408.36596052,N,12607.75966212,E,4,33,0.5,19.079,M,18.321,M,14.7,4715*44, 09:27:06.87
File: 1552625, $GPGGA,092709.10,3408.36600833,N,12607.76019262,E,4,33,0.5,18.986,M,18.321,M,15.1,4715*4A, 09:27:07.37
File: 1552626, $GPGGA,092709.60,3408.36603051,N,12607.76083519,E,4,33,0.5,18.906,M,18.321,M,15.6,4715*45, 09:27:07.87
File: 1552627, $GPGGA,092710.10,3408.36600084,N,12607.76149547,E,4,33,0.5,18.897,M,18.321,M,16.1,4715*40, 09:27:08.27
File: 1552628, $GPGGA,092710.50,3408.36595428,N,12607.76204569,E,4,33,0.5,18.923,M,18.321,M,16.5,4715*45, 09:27:08.77
File: 1552629, $GPGGA,092711.00,3408.36590551,N,12607.76272317,E,4,33,0.5,18.990,M,18.321,M,17.0,4715*49, 09:27:09.19
File: 1552630, $GPGGA,092711.50,3408.36591385,N,12607.76337829,E,4,33,0.5,19.060,M,18.321,M,17.5,4715*46, 09:27:09.67
File: 1552631, $GPGGA,092712.00,3408.36596277,N,12607.76406483,E,4,33,0.5,19.113,M,18.321,M,18.0,4715*4D, 09:27:10.19
File: 1552632, $GPGGA,092712.40,3408.36598504,N,12607.76468830,E,4,33,0.5,19.125,M,18.321,M,18.4,4715*49, 09:27:10.59
File: 1552633, $GPGGA,092712.90,3408.36598461,N,12607.76553340,E,4,33,0.5,19.046,M,18.321,M,16.9,4715*44, 09:27:11.07
File: 1552634, $GPGGA,092713.30,3408.36596935,N,12607.76621488,E,4,33,0.5,18.966,M,18.321,M,17.3,4715*49, 09:27:11.57
File: 1552635, $GPGGA,092713.80,3408.36597560,N,12607.76696718,E,4,33,0.5,18.916,M,18.321,M,17.8,4715*45, 09:27:12.07
File: 1552636, $GPGGA,092714.30,3408.36602656,N,12607.76754106,E,4,33,0.5,19.000,M,18.322,M,18.3,4715*4E, 09:27:12.47
File: 1552637, $GPGGA,092714.70,3408.36607859,N,12607.76792297,E,4,33,0.5,19.137,M,18.322,M,18.7,4715*4E, 09:27:12.97
File: 1552638, $GPGGA,092715.20,3408.36610411,N,12607.76844072,E,4,33,0.5,19.310,M,18.322,M,19.2,4715*42, 09:27:13.39
File: 1552639, $GPGGA,092715.60,3408.36607879,N,12607.76898990,E,4,33,0.5,19.388,M,18.322,M,19.6,4715*43, 09:27:13.87
File: 1552640, $GPGGA,092716.10,3408.36599876,N,12607.76984670,E,4,33,0.5,19.346,M,18.322,M,20.1,4715*4E, 09:27:14.27
File: 1552641, $GPGGA,092716.60,3408.36592355,N,12607.77077501,E,4,33,0.5,19.194,M,18.322,M,16.6,4715*46, 09:27:14.79
File: 1552642, $GPGGA,092717.00,3408.36591000,N,12607.77146365,E,4,33,0.5,19.078,M,18.322,M,17.0,4715*42, 09:27:15.19
File: 1552643, $GPGGA,092717.50,3408.36597638,N,12607.77214051,E,4,33,0.5,19.026,M,18.322,M,17.5,4715*42, 09:27:15.67
File: 1552644, $GPGGA,092718.00,3408.36612066,N,12607.77266308,E,4,33,0.5,19.112,M,18.322,M,18.0,4715*4D, 09:27:16.19
File: 1552645, $GPGGA,092718.40,3408.36622565,N,12607.77310838,E,4,33,0.5,19.241,M,18.322,M,18.4,4715*45, 09:27:16.67
File: 1552646, $GPGGA,092718.90,3408.36627850,N,12607.77377481,E,4,33,0.5,19.353,M,18.322,M,18.9,4715*46, 09:27:17.17
File: 1552647, $GPGGA,092719.30,3408.36623183,N,12607.77440267,E,4,33,0.5,19.345,M,18.322,M,19.3,4715*4F, 09:27:17.57
File: 1552648, $GPGGA,092719.80,3408.36610407,N,12607.77524371,E,4,33,0.5,19.181,M,18.322,M,19.8,4715*49, 09:27:17.99
File: 1552649, $GPGGA,092720.20,3408.36599790,N,12607.77589310,E,4,33,0.5,18.999,M,18.322,M,20.2,4715*46, 09:27:18.47
File: 1552650, $GPGGA,092720.70,3408.36592120,N,12607.77663898,E,4,33,0.5,18.855,M,18.322,M,16.7,4715*48, 09:27:18.87
File: 1552651, $GPGGA,092721.20,3408.36595034,N,12607.77729192,E,4,33,0.5,18.818,M,18.322,M,17.2,4715*4E, 09:27:19.39
File: 1552652, $GPGGA,092721.60,3408.36603641,N,12607.77775935,E,4,33,0.5,18.863,M,18.322,M,17.6,4715*46, 09:27:19.87
File: 1552653, $GPGGA,092722.00,3408.36613960,N,12607.77820218,E,4,33,0.5,18.931,M,18.322,M,18.0,4715*4A, 09:27:20.27
File: 1552654, $GPGGA,092722.50,3408.36623811,N,12607.77881283,E,4,33,0.5,18.979,M,18.322,M,18.5,4715*4B, 09:27:20.77
File: 1552655, $GPGGA,092723.00,3408.36626322,N,12607.77953670,E,4,33,0.5,18.983,M,18.322,M,19.0,4715*46, 09:27:21.19
File: 1552656, $GPGGA,092723.50,3408.36624149,N,12607.78032958,E,4,33,0.5,18.974,M,18.322,M,19.5,4715*47, 09:27:21.67
File: 1552657, $GPGGA,092724.00,3408.36620584,N,12607.78110298,E,4,33,0.5,19.017,M,18.322,M,20.0,4715*40, 09:27:22.19
File: 1552658, $GPGGA,092724.40,3408.36618443,N,12607.78167979,E,4,33,0.5,19.105,M,18.322,M,16.4,4715*42, 09:27:22.67
File: 1552659, $GPGGA,092724.90,3408.36617992,N,12607.78236524,E,4,33,0.5,19.259,M,18.322,M,16.9,4715*45, 09:27:23.17
File: 1552660, $GPGGA,092725.40,3408.36622066,N,12607.78304726,E,4,33,0.5,19.371,M,18.322,M,17.4,4715*4A, 09:27:23.59
File: 1552661, $GPGGA,092725.90,3408.36631366,N,12607.78376446,E,4,33,0.5,19.354,M,18.322,M,17.9,4715*4C, 09:27:24.07
File: 1552662, $GPGGA,092726.30,3408.36640321,N,12607.78436558,E,4,33,0.5,19.246,M,18.322,M,18.3,4715*4A, 09:27:24.57
File: 1552663, $GPGGA,092726.80,3408.36647671,N,12607.78509387,E,4,33,0.5,19.098,M,18.322,M,18.8,4715*45, 09:27:24.99
File: 1552664, $GPGGA,092727.20,3408.36646282,N,12607.78561827,E,4,33,0.5,19.047,M,18.322,M,19.2,4715*41, 09:27:25.47
File: 1552665, $GPGGA,092727.70,3408.36635563,N,12607.78619362,E,4,33,0.5,19.069,M,18.322,M,19.7,4715*47, 09:27:25.87
File: 1552666, $GPGGA,092728.10,3408.36623936,N,12607.78664509,E,4,33,0.5,19.108,M,18.322,M,16.1,4715*4B, 09:27:26.27
File: 1552667, $GPGGA,092728.50,3408.36613822,N,12607.78714932,E,4,33,0.5,19.129,M,18.322,M,16.5,4715*4D, 09:27:26.76
File: 1552668, $GPGGA,092729.00,3408.36608009,N,12607.78791763,E,4,33,0.5,19.073,M,18.322,M,17.0,4715*4F, 09:27:27.19
File: 1552669, $GPGGA,092729.40,3408.36611088,N,12607.78862507,E,4,33,0.5,18.944,M,18.322,M,17.4,4715*41, 09:27:27.59
File: 1552670, $GPGGA,092729.80,3408.36622286,N,12607.78935340,E,4,33,0.5,18.787,M,18.322,M,17.8,4715*4A, 09:27:27.99
File: 1552671, $GPGGA,092730.20,3408.36640190,N,12607.79004438,E,4,33,0.5,18.692,M,18.322,M,18.2,4715*4A, 09:27:28.39
File: 1552672, $GPGGA,092730.70,3408.36661769,N,12607.79076578,E,4,33,0.5,18.714,M,18.322,M,18.7,4715*46, 09:27:28.87
File: 1552673, $GPGGA,092731.10,3408.36671048,N,12607.79125033,E,4,33,0.5,18.882,M,18.322,M,19.1,4715*4E, 09:27:29.37
File: 1552674, $GPGGA,092731.60,3408.36666547,N,12607.79181045,E,4,33,0.5,19.201,M,18.322,M,19.6,4715*4D, 09:27:29.87
File: 1552675, $GPGGA,092732.00,3408.36654137,N,12607.79227696,E,4,33,0.5,19.423,M,18.322,M,16.0,4715*42, 09:27:30.27
File: 1552676, $GPGGA,092732.50,3408.36639291,N,12607.79292150,E,4,33,0.5,19.566,M,18.322,M,16.5,4715*45, 09:27:30.67
File: 1552677, $GPGGA,092733.00,3408.36633021,N,12607.79362336,E,4,33,0.5,19.552,M,18.322,M,17.0,4715*4D, 09:27:31.19
File: 1552678, $GPGGA,092733.40,3408.36635177,N,12607.79420577,E,4,33,0.5,19.473,M,18.322,M,17.4,4715*49, 09:27:31.66
File: 1552679, $GPGGA,092733.90,3408.36645271,N,12607.79494132,E,4,33,0.5,19.338,M,18.322,M,17.9,4715*49, 09:27:32.07
File: 1552680, $GPGGA,092734.40,3408.36656217,N,12607.79569550,E,4,33,0.5,19.211,M,18.323,M,18.4,4715*4B, 09:27:32.59
File: 1552681, $GPGGA,092734.80,3408.36661718,N,12607.79631790,E,4,33,0.5,19.050,M,18.323,M,18.8,4715*42, 09:27:33.06
File: 1552682, $GPGGA,092735.30,3408.36663425,N,12607.79709354,E,4,33,0.5,18.824,M,18.323,M,19.3,4715*41, 09:27:33.57
File: 1552683, $GPGGA,092735.80,3408.36661565,N,12607.79777757,E,4,33,0.5,18.616,M,18.323,M,15.8,4715*4B, 09:27:33.99
File: 1552684, $GPGGA,092736.20,3408.36662380,N,12607.79823746,E,4,33,0.5,18.544,M,18.323,M,16.2,4715*4F, 09:27:34.47
File: 1552685, $GPGGA,092736.70,3408.36669417,N,12607.79879077,E,4,33,0.5,18.618,M,18.323,M,16.7,4715*4D, 09:27:34.87
File: 1552686, $GPGGA,092737.10,3408.36676607,N,12607.79928622,E,4,33,0.5,18.781,M,18.323,M,17.1,4715*42, 09:27:35.37
File: 1552687, $GPGGA,092737.60,3408.36681939,N,12607.80003734,E,4,33,0.5,19.029,M,18.323,M,17.6,4715*4C, 09:27:35.79
File: 1552688, $GPGGA,092738.10,3408.36679888,N,12607.80089936,E,4,33,0.5,19.205,M,18.323,M,18.1,4715*42, 09:27:36.27
File: 1552689, $GPGGA,092738.50,3408.36674172,N,12607.80157191,E,4,33,0.5,19.220,M,18.323,M,18.5,4715*43, 09:27:36.77
File: 1552690, $GPGGA,092739.00,3408.36667686,N,12607.80229916,E,4,33,0.5,19.195,M,18.323,M,19.0,4715*4D, 09:27:37.19
File: 1552691, $GPGGA,092739.40,3408.36665406,N,12607.80278747,E,4,33,0.5,19.167,M,18.323,M,19.4,4715*46, 09:27:37.67
File: 1552692, $GPGGA,092739.90,3408.36668956,N,12607.80337038,E,4,33,0.5,19.188,M,18.323,M,15.9,4715*4B, 09:27:38.07
File: 1552693, $GPGGA,092740.40,3408.36679086,N,12607.80403079,E,4,33,0.5,19.256,M,18.323,M,16.4,4715*47, 09:27:38.59
File: 1552694, $GPGGA,092740.80,3408.36688586,N,12607.80464436,E,4,33,0.5,19.329,M,18.323,M,16.8,4715*4B, 09:27:39.07
File: 1552695, $GPGGA,092741.30,3408.36698208,N,12607.80546889,E,4,33,0.5,19.404,M,18.323,M,17.3,4715*4A, 09:27:39.47
File: 1552696, $GPGGA,092741.80,3408.36701815,N,12607.80624251,E,4,33,0.5,19.422,M,18.323,M,17.8,4715*41, 09:27:39.99
File: 1552697, $GPGGA,092742.20,3408.36701997,N,12607.80677566,E,4,33,0.5,19.425,M,18.323,M,18.2,4715*44, 09:27:40.47
File: 1552698, $GPGGA,092742.70,3408.36698910,N,12607.80737551,E,4,33,0.5,19.392,M,18.323,M,18.7,4715*40, 09:27:40.97
File: 1552699, $GPGGA,092743.20,3408.36693516,N,12607.80800182,E,4,33,0.5,19.323,M,18.323,M,19.2,4715*4A, 09:27:41.40
File: 1552700, $GPGGA,092743.60,3408.36689378,N,12607.80855179,E,4,33,0.5,19.193,M,18.323,M,15.6,4715*4E, 09:27:41.87
File: 1552701, $GPGGA,092744.10,3408.36688116,N,12607.80930513,E,4,33,0.5,18.952,M,18.323,M,16.1,4715*4F, 09:27:42.37
File: 1552702, $GPGGA,092744.60,3408.36694041,N,12607.81012254,E,4,33,0.5,18.689,M,18.323,M,16.6,4715*44, 09:27:42.79
File: 1552703, $GPGGA,092745.00,3408.36702919,N,12607.81075838,E,4,33,0.5,18.521,M,18.323,M,17.0,4715*4E, 09:27:43.19
File: 1552704, $GPGGA,092745.50,3408.36716152,N,12607.81145165,E,4,33,0.5,18.469,M,18.323,M,17.5,4715*42, 09:27:43.67
File: 1552705, $GPGGA,092745.90,3408.36726910,N,12607.81192566,E,4,33,0.5,18.585,M,18.323,M,17.9,4715*41, 09:27:44.17
File: 1552706, $GPGGA,092746.50,3408.36738802,N,12607.81258347,E,4,33,0.5,18.917,M,18.323,M,18.5,4715*47, 09:27:44.67
File: 1552707, $GPGGA,092746.90,3408.36742388,N,12607.81305185,E,4,33,0.5,19.154,M,18.323,M,18.9,4715*48, 09:27:45.17
File: 1552708, $GPGGA,092747.40,3408.36738299,N,12607.81373923,E,4,33,0.5,19.352,M,18.323,M,15.4,4715*49, 09:27:45.59
File: 1552709, $GPGGA,092747.90,3408.36724842,N,12607.81452996,E,4,33,0.5,19.396,M,18.323,M,15.9,4715*4A, 09:27:46.07
File: 1552710, $GPGGA,092748.30,3408.36711685,N,12607.81517905,E,4,33,0.5,19.333,M,18.323,M,16.3,4715*40, 09:27:46.47
File: 1552711, $GPGGA,092748.80,3408.36701044,N,12607.81595355,E,4,33,0.5,19.236,M,18.323,M,16.8,4715*4B, 09:27:47.00
File: 1552712, $GPGGA,092749.20,3408.36702508,N,12607.81651557,E,4,33,0.5,19.164,M,18.323,M,17.2,4715*4E, 09:27:47.46
File: 1552713, $GPGGA,092749.70,3408.36718076,N,12607.81715545,E,4,33,0.5,19.137,M,18.323,M,17.7,4715*4D, 09:27:47.87
File: 1552714, $GPGGA,092750.10,3408.36737591,N,12607.81764519,E,4,33,0.5,19.136,M,18.323,M,18.1,4715*45, 09:27:48.37
File: 1552715, $GPGGA,092750.60,3408.36762114,N,12607.81827783,E,4,33,0.5,19.174,M,18.323,M,18.6,4715*43, 09:27:48.79
File: 1552716, $GPGGA,092751.10,3408.36779583,N,12607.81897675,E,4,33,0.5,19.199,M,18.323,M,19.1,4715*43, 09:27:49.27
File: 1552717, $GPGGA,092751.50,3408.36784139,N,12607.81958077,E,4,33,0.5,19.198,M,18.323,M,15.5,4715*4F, 09:27:49.77
File: 1552718, $GPGGA,092752.00,3408.36777008,N,12607.82037891,E,4,33,0.5,19.147,M,18.323,M,16.0,4715*41, 09:27:50.19
File: 1552719, $GPGGA,092752.40,3408.36762875,N,12607.82103035,E,4,33,0.5,19.062,M,18.323,M,16.4,4715*41, 09:27:50.59
File: 1552720, $GPGGA,092752.80,3408.36745509,N,12607.82164687,E,4,33,0.5,18.963,M,18.323,M,16.8,4715*45, 09:27:50.99
File: 1552721, $GPGGA,092753.20,3408.36730156,N,12607.82219671,E,4,33,0.5,18.890,M,18.323,M,17.2,4715*44, 09:27:51.39
File: 1552722, $GPGGA,092753.60,3408.36723428,N,12607.82264883,E,4,33,0.5,18.870,M,18.323,M,17.6,4715*4D, 09:27:51.87
File: 1552723, $GPGGA,092754.10,3408.36730308,N,12607.82311466,E,4,33,0.5,18.971,M,18.323,M,18.1,4715*46, 09:27:52.27
File: 1552724, $GPGGA,092754.60,3408.36751562,N,12607.82363115,E,4,33,0.5,19.135,M,18.323,M,18.6,4715*46, 09:27:52.79
File: 1552725, $GPGGA,092755.00,3408.36772575,N,12607.82419049,E,4,33,0.5,19.227,M,18.324,M,19.0,4715*44, 09:27:53.27
File: 1552726, $GPGGA,092755.40,3408.36790822,N,12607.82491332,E,4,33,0.5,19.216,M,18.324,M,15.4,4715*46, 09:27:53.59
File: 1552727, $GPGGA,092755.90,3408.36802962,N,12607.82593975,E,4,33,0.5,19.086,M,18.324,M,15.9,4715*46, 09:27:54.07
File: 1552728, $GPGGA,092756.40,3408.36802599,N,12607.82687998,E,4,33,0.5,18.911,M,18.324,M,16.4,4715*4D, 09:27:54.59
File: 1552729, $GPGGA,092756.80,3408.36795608,N,12607.82744248,E,4,33,0.5,18.856,M,18.324,M,16.8,4715*4D, 09:27:55.07
File: 1552730, $GPGGA,092757.20,3408.36786397,N,12607.82782360,E,4,33,0.5,18.930,M,18.324,M,17.2,4715*4C, 09:27:55.46
File: 1552731, $GPGGA,092757.70,3408.36776388,N,12607.82817637,E,4,33,0.5,19.175,M,18.324,M,17.7,4715*41, 09:27:55.97
File: 1552732, $GPGGA,092758.10,3408.36773374,N,12607.82849926,E,4,33,0.5,19.379,M,18.324,M,18.1,4715*4D, 09:27:56.37
File: 1552733, $GPGGA,092758.60,3408.36779249,N,12607.82908900,E,4,33,0.5,19.566,M,18.324,M,18.6,4715*40, 09:27:56.79
File: 1552734, $GPGGA,092759.10,3408.36791426,N,12607.82990758,E,4,33,0.5,19.543,M,18.324,M,15.1,4715*40, 09:27:57.27
File: 1552735, $GPGGA,092759.40,3408.36798717,N,12607.83046906,E,4,33,0.5,19.432,M,18.324,M,15.4,4715*49, 09:27:57.67
File: 1552736, $GPGGA,092759.90,3408.36807592,N,12607.83141017,E,4,33,0.5,19.103,M,18.324,M,15.9,4715*47, 09:27:58.17
File: 1552737, $GPGGA,092800.40,3408.36810112,N,12607.83222248,E,4,33,0.5,18.787,M,18.324,M,16.4,4715*48, 09:27:58.59
File: 1552738, $GPGGA,092800.80,3408.36808691,N,12607.83274011,E,4,33,0.5,18.639,M,18.324,M,16.8,4715*44, 09:27:59.07
File: 1552739, $GPGGA,092801.30,3408.36806759,N,12607.83326243,E,4,33,0.5,18.641,M,18.324,M,17.3,4715*43, 09:27:59.57
File: 1552740, $GPGGA,092801.80,3408.36810593,N,12607.83375351,E,4,33,0.5,18.834,M,18.324,M,17.8,4715*48, 09:28:00.07
File: 1552741, $GPGGA,092802.30,3408.36820027,N,12607.83432153,E,4,33,0.5,19.060,M,18.324,M,18.3,4715*41, 09:28:00.57
File: 1552742, $GPGGA,092802.80,3408.36830477,N,12607.83502717,E,4,33,0.5,19.207,M,18.324,M,18.8,4715*46, 09:28:00.99
File: 1552743, $GPGGA,092803.30,3408.36835445,N,12607.83586921,E,4,33,0.5,19.238,M,18.324,M,15.3,4715*45, 09:28:01.47
File: 1552744, $GPGGA,092803.80,3408.36832219,N,12607.83677131,E,4,33,0.5,19.162,M,18.324,M,15.8,4715*45, 09:28:01.99
File: 1552745, $GPGGA,092804.20,3408.36826058,N,12607.83742284,E,4,33,0.5,19.088,M,18.324,M,16.2,4715*4C, 09:28:02.47
File: 1552746, $GPGGA,092804.70,3408.36819548,N,12607.83811518,E,4,33,0.5,19.016,M,18.324,M,16.7,4715*48, 09:28:02.97
File: 1552747, $GPGGA,092805.20,3408.36818262,N,12607.83867514,E,4,33,0.5,19.030,M,18.324,M,17.2,4715*4F, 09:28:03.39
File: 1552748, $GPGGA,092805.60,3408.36822001,N,12607.83907837,E,4,33,0.5,19.098,M,18.324,M,17.6,4715*48, 09:28:03.87
File: 1552749, $GPGGA,092806.00,3408.36828317,N,12607.83949218,E,4,33,0.5,19.157,M,18.324,M,18.0,4715*45, 09:28:04.26
File: 1552750, $GPGGA,092806.50,3408.36840618,N,12607.84011314,E,4,33,0.5,19.231,M,18.324,M,18.5,4715*4C, 09:28:04.77
File: 1552751, $GPGGA,092807.00,3408.36855975,N,12607.84087631,E,4,33,0.5,19.254,M,18.324,M,19.0,4715*42, 09:28:05.19
File: 1552752, $GPGGA,092807.40,3408.36868294,N,12607.84156843,E,4,33,0.5,19.238,M,18.324,M,15.4,4715*48, 09:28:05.59
File: 1552753, $GPGGA,092807.80,3408.36876774,N,12607.84228439,E,4,33,0.5,19.210,M,18.324,M,15.8,4715*4D, 09:28:05.99
File: 1552754, $GPGGA,092808.30,3408.36878797,N,12607.84313603,E,4,33,0.5,19.165,M,18.324,M,16.3,4715*41, 09:28:06.47
File: 1552755, $GPGGA,092808.80,3408.36873292,N,12607.84384108,E,4,33,0.5,19.148,M,18.324,M,16.8,4715*47, 09:28:06.99
File: 1552756, $GPGGA,092809.20,3408.36866690,N,12607.84427673,E,4,33,0.5,19.134,M,18.324,M,17.2,4715*4B, 09:28:07.39
File: 1552757, $GPGGA,092809.70,3408.36860039,N,12607.84474486,E,4,33,0.5,19.117,M,18.324,M,17.7,4715*47, 09:28:07.86
File: 1552758, $GPGGA,092810.10,3408.36857717,N,12607.84516091,E,4,33,0.5,19.079,M,18.324,M,18.1,4715*41, 09:28:08.26
File: 1552759, $GPGGA,092810.60,3408.36860594,N,12607.84585038,E,4,33,0.5,19.009,M,18.324,M,18.6,4715*42, 09:28:08.79
File: 1552760, $GPGGA,092811.00,3408.36867475,N,12607.84651996,E,4,33,0.5,18.961,M,18.324,M,19.0,4715*4A, 09:28:09.19
File: 1552761, $GPGGA,092811.40,3408.36877574,N,12607.84721902,E,4,33,0.5,18.918,M,18.324,M,15.4,4715*42, 09:28:09.59
File: 1552762, $GPGGA,092811.90,3408.36893647,N,12607.84801692,E,4,33,0.5,18.939,M,18.324,M,15.9,4715*43, 09:28:10.06
File: 1552763, $GPGGA,092812.30,3408.36907040,N,12607.84853702,E,4,33,0.5,19.027,M,18.324,M,16.3,4715*46, 09:28:10.56
File: 1552764, $GPGGA,092812.80,3408.36920781,N,12607.84907249,E,4,33,0.5,19.203,M,18.324,M,16.8,4715*47, 09:28:11.06
File: 1552765, $GPGGA,092813.30,3408.36924687,N,12607.84961194,E,4,33,0.5,19.355,M,18.324,M,17.3,4715*45, 09:28:11.56
File: 1552766, $GPGGA,092813.80,3408.36916004,N,12607.85029752,E,4,33,0.5,19.356,M,18.324,M,17.8,4715*42, 09:28:11.99
File: 1552767, $GPGGA,092814.20,3408.36902194,N,12607.85096574,E,4,33,0.5,19.195,M,18.324,M,18.2,4715*48, 09:28:12.46
File: 1552768, $GPGGA,092814.70,3408.36886834,N,12607.85186819,E,4,33,0.5,18.858,M,18.324,M,18.7,4715*49, 09:28:12.86
File: 1552769, $GPGGA,092815.20,3408.36883293,N,12607.85266708,E,4,33,0.5,18.569,M,18.325,M,15.2,4715*4B, 09:28:13.39
File: 1552770, $GPGGA,092815.60,3408.36892430,N,12607.85315375,E,4,33,0.5,18.533,M,18.325,M,15.6,4715*40, 09:28:13.86
File: 1552771, $GPGGA,092816.10,3408.36913208,N,12607.85363089,E,4,33,0.5,18.697,M,18.325,M,16.1,4715*49, 09:28:14.26
File: 1552772, $GPGGA,092816.60,3408.36936466,N,12607.85410827,E,4,33,0.5,18.999,M,18.325,M,16.6,4715*4E, 09:28:14.79
File: 1552773, $GPGGA,092817.00,3408.36952272,N,12607.85461183,E,4,33,0.5,19.197,M,18.325,M,17.0,4715*49, 09:28:15.19
File: 1552774, $GPGGA,092817.40,3408.36961955,N,12607.85526108,E,4,33,0.5,19.284,M,18.325,M,17.4,4715*47, 09:28:15.67
File: 1552775, $GPGGA,092817.90,3408.36964669,N,12607.85618140,E,4,33,0.5,19.297,M,18.325,M,17.9,4715*42, 09:28:16.16
File: 1552776, $GPGGA,092818.40,3408.36960266,N,12607.85703426,E,4,33,0.5,19.244,M,18.325,M,18.4,4715*4D, 09:28:16.59
File: 1552777, $GPGGA,092818.80,3408.36957333,N,12607.85758153,E,4,33,0.5,19.297,M,18.325,M,18.8,4715*4F, 09:28:17.06
File: 1552778, $GPGGA,092819.30,3408.36957191,N,12607.85819033,E,4,33,0.5,19.384,M,18.325,M,15.3,4715*47, 09:28:17.56
File: 1552779, $GPGGA,092819.80,3408.36964592,N,12607.85878689,E,4,33,0.5,19.468,M,18.325,M,15.8,4715*45, 09:28:17.99
File: 1552780, $GPGGA,092820.20,3408.36975230,N,12607.85932121,E,4,33,0.5,19.479,M,18.325,M,16.2,4715*49, 09:28:18.46
File: 1552781, $GPGGA,092820.70,3408.36993393,N,12607.86004940,E,4,33,0.5,19.389,M,18.325,M,16.7,4715*41, 09:28:18.86
File: 1552782, $GPGGA,092821.10,3408.37007671,N,12607.86063569,E,4,33,0.5,19.242,M,18.325,M,17.1,4715*4D, 09:28:19.37
File: 1552783, $GPGGA,092821.60,3408.37018291,N,12607.86132560,E,4,33,0.5,19.040,M,18.325,M,17.6,4715*45, 09:28:19.79
File: 1552784, $GPGGA,092822.10,3408.37016379,N,12607.86199889,E,4,33,0.5,18.879,M,18.325,M,18.1,4715*48, 09:28:20.26
File: 1552785, $GPGGA,092822.60,3408.37007231,N,12607.86270524,E,4,33,0.5,18.764,M,18.325,M,18.6,4715*48, 09:28:20.79
File: 1552786, $GPGGA,092823.00,3408.37002159,N,12607.86329078,E,4,33,0.5,18.717,M,18.325,M,19.0,4715*45, 09:28:21.26
File: 1552787, $GPGGA,092823.50,3408.37007241,N,12607.86403250,E,4,33,0.5,18.705,M,18.325,M,15.5,4715*42, 09:28:21.66
File: 1552788, $GPGGA,092824.00,3408.37025683,N,12607.86473331,E,4,33,0.5,18.741,M,18.325,M,16.0,4715*4D, 09:28:22.19
File: 1552789, $GPGGA,092824.40,3408.37044431,N,12607.86525611,E,4,33,0.5,18.784,M,18.325,M,16.4,4715*4D, 09:28:22.59
File: 1552790, $GPGGA,092824.90,3408.37064843,N,12607.86591670,E,4,33,0.5,18.875,M,18.325,M,16.9,4715*4F, 09:28:23.06
File: 1552791, $GPGGA,092825.40,3408.37075806,N,12607.86663470,E,4,33,0.5,19.001,M,18.325,M,17.4,4715*48, 09:28:23.59
File: 1552792, $GPGGA,092825.80,3408.37078663,N,12607.86722169,E,4,32,0.5,19.130,M,18.325,M,17.8,4715*43, 09:28:24.06
File: 1552793, $GPGGA,092826.30,3408.37076660,N,12607.86791731,E,4,32,0.5,19.277,M,18.325,M,18.3,4715*41, 09:28:24.56
File: 1552794, $GPGGA,092826.80,3408.37074067,N,12607.86856665,E,4,32,0.5,19.381,M,18.325,M,18.8,4715*4E, 09:28:24.99
File: 1552795, $GPGGA,092827.20,3408.37075864,N,12607.86907826,E,4,32,0.5,19.433,M,18.325,M,15.2,4715*4A, 09:28:25.46
File: 1552796, $GPGGA,092827.70,3408.37085741,N,12607.86976036,E,4,32,0.5,19.429,M,18.325,M,15.7,4715*49, 09:28:25.86
File: 1552797, $GPGGA,092828.20,3408.37101857,N,12607.87052596,E,4,32,0.5,19.378,M,18.325,M,16.2,4715*42, 09:28:26.39
File: 1552798, $GPGGA,092828.60,3408.37114984,N,12607.87116154,E,4,32,0.5,19.309,M,18.325,M,16.6,4715*44, 09:28:26.79
File: 1552799, $GPGGA,092829.00,3408.37126809,N,12607.87177441,E,4,32,0.5,19.249,M,18.325,M,17.0,4715*42, 09:28:27.26
File: 1552800, $GPGGA,092829.50,3408.37136804,N,12607.87247031,E,4,32,0.5,19.182,M,18.325,M,17.5,4715*49, 09:28:27.66
File: 1552801, $GPGGA,092830.00,3408.37141842,N,12607.87311164,E,4,32,0.5,19.156,M,18.325,M,18.0,4715*46, 09:28:28.19
File: 1552802, $GPGGA,092830.50,3408.37144575,N,12607.87375921,E,4,32,0.5,19.121,M,18.325,M,18.5,4715*41, 09:28:28.66
File: 1552803, $GPGGA,092830.90,3408.37149777,N,12607.87433926,E,4,32,0.5,19.066,M,18.325,M,14.9,4715*40, 09:28:29.16
File: 1552804, $GPGGA,092831.40,3408.37163186,N,12607.87515434,E,4,32,0.5,18.934,M,18.325,M,15.4,4715*44, 09:28:29.59
File: 1552805, $GPGGA,092831.80,3408.37178571,N,12607.87581952,E,4,32,0.5,18.845,M,18.325,M,15.8,4715*45, 09:28:29.99
File: 1552806, $GPGGA,092832.20,3408.37194577,N,12607.87642220,E,4,32,0.5,18.820,M,18.325,M,16.2,4715*40, 09:28:30.46
File: 1552807, $GPGGA,092832.70,3408.37210308,N,12607.87704784,E,4,32,0.5,18.921,M,18.325,M,16.7,4715*49, 09:28:30.86
File: 1552808, $GPGGA,092833.10,3408.37216086,N,12607.87749014,E,4,32,0.5,19.064,M,18.325,M,17.1,4715*44, 09:28:31.37
File: 1552809, $GPGGA,092833.60,3408.37218077,N,12607.87807849,E,4,32,0.5,19.252,M,18.325,M,17.6,4715*46, 09:28:31.87
File: 1552810, $GPGGA,092834.10,3408.37214592,N,12607.87878642,E,4,32,0.5,19.323,M,18.325,M,18.1,4715*46, 09:28:32.26
File: 1552811, $GPGGA,092834.60,3408.37208295,N,12607.87962067,E,4,32,0.5,19.231,M,18.325,M,14.6,4715*4E, 09:28:32.79
File: 1552812, $GPGGA,092835.00,3408.37206624,N,12607.88029707,E,4,32,0.5,19.087,M,18.325,M,15.0,4715*49, 09:28:33.19
File: 1552813, $GPGGA,092835.40,3408.37213223,N,12607.88090018,E,4,32,0.5,18.985,M,18.325,M,15.4,4715*4F, 09:28:33.66
File: 1552814, $GPGGA,092835.90,3408.37234231,N,12607.88152339,E,4,32,0.5,18.978,M,18.326,M,15.9,4715*47, 09:28:34.16
File: 1552815, $GPGGA,092836.40,3408.37262340,N,12607.88209092,E,4,32,0.5,19.097,M,18.326,M,16.4,4715*45, 09:28:34.59
File: 1552816, $GPGGA,092836.80,3408.37281498,N,12607.88261686,E,4,32,0.5,19.202,M,18.326,M,16.8,4715*49, 09:28:35.07
File: 1552817, $GPGGA,092837.20,3408.37293098,N,12607.88325075,E,4,32,0.5,19.243,M,18.326,M,17.2,4715*40, 09:28:35.46
File: 1552818, $GPGGA,092837.70,3408.37298454,N,12607.88414058,E,4,32,0.5,19.151,M,18.326,M,17.7,4715*45, 09:28:35.96
File: 1552819, $GPGGA,092838.20,3408.37296521,N,12607.88497324,E,4,32,0.5,19.017,M,18.326,M,18.2,4715*48, 09:28:36.39
File: 1552820, $GPGGA,092838.60,3408.37295184,N,12607.88550998,E,4,32,0.5,18.992,M,18.326,M,18.6,4715*42, 09:28:36.86
File: 1552821, $GPGGA,092839.00,3408.37297407,N,12607.88594027,E,4,32,0.5,19.076,M,18.326,M,15.0,4715*45, 09:28:37.19
File: 1552822, $GPGGA,092839.50,3408.37307347,N,12607.88643169,E,4,32,0.5,19.299,M,18.326,M,15.5,4715*4F, 09:28:37.77
File: 1552823, $GPGGA,092840.00,3408.37322619,N,12607.88702044,E,4,32,0.5,19.544,M,18.326,M,16.0,4715*46, 09:28:38.19
File: 1552824, $GPGGA,092840.40,3408.37336615,N,12607.88761833,E,4,32,0.5,19.632,M,18.326,M,16.4,4715*40, 09:28:38.59
File: 1552825, $GPGGA,092840.80,3408.37349184,N,12607.88830374,E,4,32,0.5,19.565,M,18.326,M,16.8,4715*45, 09:28:38.99
File: 1552826, $GPGGA,092841.20,3408.37358777,N,12607.88901850,E,4,32,0.5,19.373,M,18.326,M,17.2,4715*40, 09:28:39.47
File: 1552827, $GPGGA,092841.70,3408.37363237,N,12607.88987458,E,4,32,0.5,19.076,M,18.326,M,17.7,4715*45, 09:28:39.96
File: 1552828, $GPGGA,092842.20,3408.37364312,N,12607.89063819,E,4,32,0.5,18.833,M,18.326,M,18.2,4715*4B, 09:28:40.39
File: 1552829, $GPGGA,092842.60,3408.37365134,N,12607.89117949,E,4,32,0.5,18.750,M,18.326,M,18.6,4715*40, 09:28:40.86
File: 1552830, $GPGGA,092843.10,3408.37370274,N,12607.89178403,E,4,32,0.5,18.790,M,18.326,M,15.1,4715*49, 09:28:41.26
File: 1552831, $GPGGA,092843.60,3408.37382150,N,12607.89234231,E,4,32,0.5,18.904,M,18.326,M,15.6,4715*4E, 09:28:41.79
File: 1552832, $GPGGA,092844.10,3408.37397770,N,12607.89289167,E,4,32,0.5,18.994,M,18.326,M,16.1,4715*45, 09:28:42.26
File: 1552833, $GPGGA,092844.60,3408.37411788,N,12607.89351918,E,4,32,0.5,19.035,M,18.326,M,16.6,4715*4C, 09:28:42.79
File: 1552834, $GPGGA,092845.00,3408.37417311,N,12607.89413921,E,4,32,0.5,19.033,M,18.326,M,17.0,4715*43, 09:28:43.19
File: 1552835, $GPGGA,092845.40,3408.37418379,N,12607.89485636,E,4,32,0.5,18.967,M,18.326,M,17.4,4715*4D, 09:28:43.59
File: 1552836, $GPGGA,092845.90,3408.37415168,N,12607.89578072,E,4,32,0.5,18.920,M,18.326,M,17.9,4715*44, 09:28:44.06
File: 1552837, $GPGGA,092846.30,3408.37413009,N,12607.89645270,E,4,32,0.5,18.920,M,18.326,M,18.3,4715*45, 09:28:44.57
File: 1552838, $GPGGA,092846.80,3408.37416555,N,12607.89713358,E,4,32,0.5,19.021,M,18.326,M,14.8,4715*40, 09:28:45.06
File: 1552839, $GPGGA,092847.30,3408.37427804,N,12607.89765378,E,4,32,0.5,19.236,M,18.326,M,15.3,4715*4C, 09:28:45.46
File: 1552840, $GPGGA,092847.80,3408.37443216,N,12607.89816546,E,4,32,0.5,19.493,M,18.326,M,15.8,4715*4E, 09:28:45.99
File: 1552841, $GPGGA,092848.20,3408.37456137,N,12607.89868383,E,4,32,0.5,19.643,M,18.326,M,16.2,4715*4F, 09:28:46.39
File: 1552842, $GPGGA,092848.60,3408.37466737,N,12607.89931317,E,4,32,0.5,19.745,M,18.326,M,16.6,4715*4D, 09:28:46.79
File: 1552843, $GPGGA,092849.00,3408.37474017,N,12607.90001496,E,4,32,0.5,19.740,M,18.326,M,17.0,4715*42, 09:28:47.26
File: 1552844, $GPGGA,092849.40,3408.37475241,N,12607.90070454,E,4,32,0.5,19.639,M,18.326,M,17.4,4715*45, 09:28:47.66
File: 1552845, $GPGGA,092849.90,3408.37469258,N,12607.90147327,E,4,32,0.5,19.414,M,18.326,M,17.9,4715*4B, 09:28:48.06
File: 1552846, $GPGGA,092850.40,3408.37460745,N,12607.90211686,E,4,32,0.5,19.130,M,18.326,M,18.4,4715*41, 09:28:48.59
File: 1552847, $GPGGA,092850.80,3408.37456768,N,12607.90258953,E,4,32,0.5,18.913,M,18.326,M,14.8,4715*45, 09:28:49.06
File: 1552848, $GPGGA,092851.30,3408.37460304,N,12607.90319382,E,4,32,0.5,18.711,M,18.326,M,15.3,4715*40, 09:28:49.56
File: 1552849, $GPGGA,092851.80,3408.37474344,N,12607.90385142,E,4,32,0.5,18.621,M,18.326,M,15.8,4715*48, 09:28:49.99
File: 1552850, $GPGGA,092852.20,3408.37489499,N,12607.90441438,E,4,32,0.5,18.626,M,18.326,M,16.2,4715*4D, 09:28:50.46
File: 1552851, $GPGGA,092852.70,3408.37506941,N,12607.90514959,E,4,32,0.5,18.710,M,18.326,M,16.7,4715*4C, 09:28:50.97
File: 1552852, $GPGGA,092853.20,3408.37515343,N,12607.90593670,E,4,32,0.5,18.860,M,18.326,M,17.2,4715*45, 09:28:51.39
File: 1552853, $GPGGA,092853.70,3408.37512581,N,12607.90677358,E,4,32,0.5,18.955,M,18.326,M,17.7,4715*4B, 09:28:51.96
File: 1552854, $GPGGA,092854.20,3408.37500617,N,12607.90755532,E,4,32,0.5,19.001,M,18.326,M,14.2,4715*42, 09:28:52.39
File: 1552855, $GPGGA,092854.70,3408.37487984,N,12607.90817373,E,4,32,0.5,19.089,M,18.326,M,14.7,4715*43, 09:28:52.86
File: 1552856, $GPGGA,092855.10,3408.37483283,N,12607.90855701,E,4,32,0.5,19.190,M,18.326,M,15.1,4715*45, 09:28:53.36
File: 1552857, $GPGGA,092855.60,3408.37486124,N,12607.90899879,E,4,32,0.5,19.327,M,18.326,M,15.6,4715*40, 09:28:53.86
File: 1552858, $GPGGA,092856.10,3408.37491003,N,12607.90954445,E,4,32,0.5,19.412,M,18.327,M,16.1,4715*41, 09:28:54.26
File: 1552859, $GPGGA,092856.50,3408.37491755,N,12607.91012576,E,4,32,0.5,19.399,M,18.327,M,16.5,4715*4A, 09:28:54.77
File: 1552860, $GPGGA,092857.00,3408.37489488,N,12607.91100322,E,4,32,0.5,19.275,M,18.327,M,17.0,4715*46, 09:28:55.19
File: 1552861, $GPGGA,092857.30,3408.37488591,N,12607.91155681,E,4,32,0.5,19.165,M,18.327,M,17.3,4715*40, 09:28:55.56
File: 1552862, $GPGGA,092857.80,3408.37491818,N,12607.91241022,E,4,32,0.5,18.998,M,18.327,M,17.8,4715*46, 09:28:55.99
File: 1552863, $GPGGA,092858.30,3408.37497440,N,12607.91309266,E,4,32,0.5,18.967,M,18.327,M,18.3,4715*4E, 09:28:56.57
File: 1552864, $GPGGA,092858.80,3408.37502732,N,12607.91366558,E,4,32,0.5,19.092,M,18.327,M,14.8,4715*48, 09:28:57.06
File: 1552865, $GPGGA,092859.30,3408.37508027,N,12607.91426412,E,4,32,0.5,19.294,M,18.327,M,15.3,4715*49, 09:28:57.46
File: 1552866, $GPGGA,092859.70,3408.37514317,N,12607.91480011,E,4,32,0.5,19.420,M,18.327,M,15.7,4715*46, 09:28:57.96
File: 1552867, $GPGGA,092900.20,3408.37521022,N,12607.91552631,E,4,32,0.5,19.481,M,18.327,M,16.2,4715*4A, 09:28:58.39
File: 1552868, $GPGGA,092900.60,3408.37522665,N,12607.91610190,E,4,32,0.5,19.476,M,18.327,M,16.6,4715*4D, 09:28:58.86
File: 1552869, $GPGGA,092901.10,3408.37518534,N,12607.91675998,E,4,32,0.5,19.419,M,18.327,M,17.1,4715*49, 09:28:59.36
File: 1552870, $GPGGA,092901.60,3408.37507329,N,12607.91738178,E,4,32,0.5,19.339,M,18.327,M,17.6,4715*46, 09:28:59.79
File: 1552871, $GPGGA,092902.10,3408.37489228,N,12607.91801539,E,4,32,0.5,19.196,M,18.327,M,18.1,4715*4E, 09:29:00.26
File: 1552872, $GPGGA,092902.60,3408.37469589,N,12607.91870877,E,4,32,0.5,18.989,M,18.327,M,14.6,4715*46, 09:29:00.79
File: 1552873, $GPGGA,092903.00,3408.37459379,N,12607.91929632,E,4,32,0.5,18.795,M,18.327,M,15.0,4715*4D, 09:29:01.26
File: 1552874, $GPGGA,092903.50,3408.37462819,N,12607.92001284,E,4,32,0.5,18.600,M,18.327,M,15.5,4715*4C, 09:29:01.76
File: 1552875, $GPGGA,092904.00,3408.37484237,N,12607.92066390,E,4,32,0.5,18.543,M,18.327,M,16.0,4715*47, 09:29:02.19
File: 1552876, $GPGGA,092904.40,3408.37506132,N,12607.92118027,E,4,32,0.5,18.620,M,18.327,M,16.4,4715*4B, 09:29:02.66
File: 1552877, $GPGGA,092904.90,3408.37524956,N,12607.92188379,E,4,32,0.5,18.793,M,18.327,M,16.9,4715*49, 09:29:03.06
File: 1552878, $GPGGA,092905.40,3408.37525709,N,12607.92264635,E,4,32,0.5,18.957,M,18.327,M,17.4,4715*46, 09:29:03.59
File: 1552879, $GPGGA,092905.80,3408.37510289,N,12607.92324339,E,4,32,0.5,19.092,M,18.327,M,17.8,4715*40, 09:29:04.06
File: 1552880, $GPGGA,092906.30,3408.37479224,N,12607.92391465,E,4,32,0.5,19.193,M,18.327,M,14.3,4715*49, 09:29:04.46
File: 1552881, $GPGGA,092906.70,3408.37455510,N,12607.92438187,E,4,32,0.5,19.242,M,18.327,M,14.7,4715*45, 09:29:04.96
File: 1552882, $GPGGA,092907.20,3408.37441797,N,12607.92493275,E,4,33,0.5,19.329,M,18.327,M,15.2,4715*4F, 09:29:05.39
File: 1552883, $GPGGA,092907.70,3408.37448009,N,12607.92552244,E,4,33,0.5,19.466,M,18.327,M,15.7,4715*44, 09:29:05.86
File: 1552884, $GPGGA,092908.10,3408.37462305,N,12607.92607397,E,4,33,0.5,19.589,M,18.327,M,16.1,4715*43, 09:29:06.37
File: 1552885, $GPGGA,092908.60,3408.37481326,N,12607.92683630,E,4,33,0.5,19.672,M,18.327,M,16.6,4715*4C, 09:29:06.79
File: 1552886, $GPGGA,092909.00,3408.37490381,N,12607.92747215,E,4,33,0.5,19.621,M,18.327,M,17.0,4715*4D, 09:29:07.19
File: 1552887, $GPGGA,092909.50,3408.37491108,N,12607.92823286,E,4,33,0.5,19.420,M,18.327,M,17.5,4715*4B, 09:29:07.67
File: 1552888, $GPGGA,092910.00,3408.37481025,N,12607.92893913,E,4,33,0.5,19.159,M,18.327,M,14.0,4715*48, 09:29:08.19
File: 1552889, $GPGGA,092910.40,3408.37469513,N,12607.92947204,E,4,33,0.5,19.008,M,18.327,M,14.4,4715*4E, 09:29:08.66
File: 1552890, $GPGGA,092910.90,3408.37457724,N,12607.93009909,E,4,33,0.5,18.926,M,18.327,M,14.9,4715*45, 09:29:09.16
File: 1552891, $GPGGA,092911.50,3408.37455587,N,12607.93080835,E,4,33,0.5,18.971,M,18.327,M,15.5,4715*41, 09:29:09.66
File: 1552892, $GPGGA,092911.90,3408.37460904,N,12607.93130962,E,4,33,0.5,19.001,M,18.327,M,15.9,4715*46, 09:29:10.17
File: 1552893, $GPGGA,092912.40,3408.37468142,N,12607.93201744,E,4,33,0.5,18.977,M,18.327,M,16.4,4715*46, 09:29:10.59
File: 1552894, $GPGGA,092912.80,3408.37469351,N,12607.93262533,E,4,33,0.5,18.925,M,18.327,M,16.8,4715*47, 09:29:11.06
File: 1552895, $GPGGA,092913.30,3408.37464089,N,12607.93335883,E,4,33,0.5,18.846,M,18.327,M,17.3,4715*4D, 09:29:11.56
File: 1552896, $GPGGA,092913.80,3408.37455282,N,12607.93402918,E,4,33,0.5,18.858,M,18.327,M,17.8,4715*49, 09:29:12.06
File: 1552897, $GPGGA,092914.30,3408.37448388,N,12607.93467550,E,4,33,0.5,18.953,M,18.327,M,14.3,4715*43, 09:29:12.56
File: 1552898, $GPGGA,092914.80,3408.37445884,N,12607.93535765,E,4,33,0.5,19.067,M,18.327,M,14.8,4715*44, 09:29:12.99
File: 1552899, $GPGGA,092915.20,3408.37447211,N,12607.93594282,E,4,33,0.5,19.155,M,18.327,M,15.2,4715*47, 09:29:13.47
File: 1552900, $GPGGA,092915.70,3408.37450982,N,12607.93668882,E,4,33,0.5,19.222,M,18.327,M,15.7,4715*49, 09:29:13.96
File: 1552901, $GPGGA,092916.20,3408.37456007,N,12607.93738090,E,4,33,0.5,19.285,M,18.327,M,16.2,4715*49, 09:29:14.39
File: 1552902, $GPGGA,092916.70,3408.37460192,N,12607.93799451,E,4,33,0.5,19.352,M,18.328,M,16.7,4715*47, 09:29:14.87
File: 1552903, $GPGGA,092917.10,3408.37460761,N,12607.93846315,E,4,33,0.5,19.398,M,18.328,M,17.1,4715*41, 09:29:15.36
File: 1552904, $GPGGA,092917.60,3408.37454965,N,12607.93908933,E,4,33,0.5,19.457,M,18.328,M,17.6,4715*4D, 09:29:15.79
File: 1552905, $GPGGA,092918.10,3408.37445497,N,12607.93981900,E,4,33,0.5,19.448,M,18.328,M,14.1,4715*4E, 09:29:16.36
File: 1552906, $GPGGA,092918.60,3408.37439753,N,12607.94062124,E,4,33,0.5,19.294,M,18.328,M,14.6,4715*44, 09:29:16.79
File: 1552907, $GPGGA,092919.00,3408.37439733,N,12607.94124144,E,4,33,0.5,19.102,M,18.328,M,15.0,4715*4B, 09:29:17.19
File: 1552908, $GPGGA,092919.50,3408.37444652,N,12607.94195218,E,4,33,0.5,18.855,M,18.328,M,15.5,4715*4D, 09:29:17.66
File: 1552909, $GPGGA,092920.00,3408.37450373,N,12607.94262440,E,4,33,0.5,18.725,M,18.328,M,16.0,4715*4F, 09:29:18.19
File: 1552910, $GPGGA,092920.40,3408.37453572,N,12607.94314571,E,4,33,0.5,18.726,M,18.328,M,16.4,4715*4B, 09:29:18.66
File: 1552911, $GPGGA,092920.90,3408.37457221,N,12607.94376710,E,4,33,0.5,18.881,M,18.328,M,16.9,4715*4D, 09:29:19.16
File: 1552912, $GPGGA,092921.40,3408.37462547,N,12607.94438927,E,4,33,0.5,19.105,M,18.328,M,17.4,4715*4F, 09:29:19.66
File: 1552913, $GPGGA,092921.90,3408.37467566,N,12607.94505291,E,4,33,0.5,19.304,M,18.328,M,13.9,4715*47, 09:29:20.16
File: 1552914, $GPGGA,092922.40,3408.37468127,N,12607.94581102,E,4,33,0.5,19.377,M,18.328,M,14.4,4715*4C, 09:29:20.59
File: 1552915, $GPGGA,092922.80,3408.37466377,N,12607.94646331,E,4,33,0.5,19.353,M,18.328,M,14.8,4715*49, 09:29:20.99
File: 1552916, $GPGGA,092923.30,3408.37464258,N,12607.94726047,E,4,33,0.5,19.271,M,18.328,M,15.3,4715*43, 09:29:21.46
File: 1552917, $GPGGA,092923.70,3408.37465629,N,12607.94784441,E,4,33,0.5,19.237,M,18.328,M,15.7,4715*48, 09:29:21.96
File: 1552918, $GPGGA,092924.20,3408.37470283,N,12607.94847388,E,4,33,0.5,19.239,M,18.328,M,16.2,4715*40, 09:29:22.39
File: 1552919, $GPGGA,092924.70,3408.37473998,N,12607.94904625,E,4,33,0.5,19.227,M,18.328,M,16.7,4715*49, 09:29:22.86
File: 1552920, $GPGGA,092925.10,3408.37472641,N,12607.94952409,E,4,33,0.5,19.197,M,18.328,M,17.1,4715*44, 09:29:23.36
File: 1552921, $GPGGA,092925.60,3408.37467164,N,12607.95022175,E,4,33,0.5,19.115,M,18.328,M,17.6,4715*4B, 09:29:23.79
File: 1552922, $GPGGA,092926.00,3408.37463474,N,12607.95082957,E,4,33,0.5,19.037,M,18.328,M,16.0,4715*4A, 09:29:24.19
File: 1552923, $GPGGA,092926.50,3408.37464306,N,12607.95160438,E,4,33,0.5,18.930,M,18.328,M,16.5,4715*49, 09:29:24.66
File: 1552924, $GPGGA,092926.90,3408.37471623,N,12607.95221580,E,4,33,0.5,18.877,M,18.328,M,16.9,4715*49, 09:29:25.16
File: 1552925, $GPGGA,092927.40,3408.37484954,N,12607.95294828,E,4,33,0.5,18.846,M,18.328,M,17.4,4715*4F, 09:29:25.59
File: 1552926, $GPGGA,092927.90,3408.37495696,N,12607.95366237,E,4,33,0.5,18.851,M,18.328,M,17.9,4715*40, 09:29:26.06
File: 1552927, $GPGGA,092928.30,3408.37499637,N,12607.95422480,E,4,33,0.5,18.879,M,18.328,M,18.3,4715*40, 09:29:26.56
File: 1552928, $GPGGA,092928.80,3408.37499095,N,12607.95489480,E,4,33,0.5,18.957,M,18.328,M,18.8,4715*42, 09:29:27.06
File: 1552929, $GPGGA,092929.30,3408.37495977,N,12607.95548711,E,4,33,0.5,19.040,M,18.328,M,19.3,4715*42, 09:29:27.57
File: 1552930, $GPGGA,092929.80,3408.37493005,N,12607.95605911,E,4,33,0.5,19.177,M,18.328,M,15.8,4715*45, 09:29:27.99
File: 1552931, $GPGGA,092930.30,3408.37491165,N,12607.95672469,E,4,33,0.5,19.359,M,18.328,M,16.3,4715*47, 09:29:28.47
File: 1552932, $GPGGA,092930.70,3408.37492477,N,12607.95735138,E,4,33,0.5,19.483,M,18.328,M,16.7,4715*41, 09:29:28.97
File: 1552933, $GPGGA,092931.20,3408.37498502,N,12607.95822242,E,4,33,0.5,19.540,M,18.328,M,17.2,4715*41, 09:29:29.39
File: 1552934, $GPGGA,092931.60,3408.37506550,N,12607.95892728,E,4,33,0.5,19.520,M,18.328,M,17.6,4715*44, 09:29:29.79
File: 1552935, $GPGGA,092932.00,3408.37516413,N,12607.95957506,E,4,33,0.5,19.452,M,18.328,M,18.0,4715*4D, 09:29:30.19
File: 1552936, $GPGGA,092932.50,3408.37529729,N,12607.96026972,E,4,33,0.5,19.365,M,18.328,M,18.5,4715*4B, 09:29:30.66
File: 1552937, $GPGGA,092932.90,3408.37538549,N,12607.96074159,E,4,33,0.5,19.309,M,18.328,M,18.9,4715*43, 09:29:31.16
File: 1552938, $GPGGA,092933.40,3408.37544381,N,12607.96127275,E,4,33,0.5,19.298,M,18.328,M,19.4,4715*49, 09:29:31.66
File: 1552939, $GPGGA,092933.90,3408.37541807,N,12607.96182601,E,4,33,0.5,19.280,M,18.328,M,15.9,4715*44, 09:29:32.06
File: 1552940, $GPGGA,092934.30,3408.37534555,N,12607.96236169,E,4,33,0.5,19.223,M,18.328,M,16.3,4715*44, 09:29:32.46
File: 1552941, $GPGGA,092934.70,3408.37526793,N,12607.96298615,E,4,33,0.5,19.080,M,18.328,M,16.7,4715*4C, 09:29:32.96
File: 1552942, $GPGGA,092935.20,3408.37521225,N,12607.96383865,E,4,33,0.5,18.846,M,18.328,M,17.2,4715*42, 09:29:33.46
File: 1552943, $GPGGA,092935.70,3408.37525362,N,12607.96468422,E,4,33,0.5,18.612,M,18.328,M,17.7,4715*46, 09:29:33.96
File: 1552944, $GPGGA,092936.20,3408.37539694,N,12607.96544282,E,4,33,0.5,18.495,M,18.328,M,18.2,4715*45, 09:29:34.39
File: 1552945, $GPGGA,092936.70,3408.37557471,N,12607.96610159,E,4,33,0.5,18.551,M,18.329,M,18.7,4715*4B, 09:29:34.86
File: 1552946, $GPGGA,092937.20,3408.37569248,N,12607.96672009,E,4,33,0.5,18.765,M,18.329,M,19.2,4715*4F, 09:29:35.39
File: 1552947, $GPGGA,092937.60,3408.37569849,N,12607.96723889,E,4,33,0.5,18.981,M,18.329,M,19.6,4715*45, 09:29:35.86
File: 1552948, $GPGGA,092938.10,3408.37563825,N,12607.96793219,E,4,33,0.5,19.218,M,18.329,M,16.1,4715*47, 09:29:36.26
File: 1552949, $GPGGA,092938.60,3408.37558204,N,12607.96862622,E,4,33,0.5,19.412,M,18.329,M,16.6,4715*47, 09:29:36.79
File: 1552950, $GPGGA,092939.00,3408.37559587,N,12607.96917381,E,4,33,0.5,19.537,M,18.329,M,17.0,4715*43, 09:29:37.26
File: 1552951, $GPGGA,092939.50,3408.37569993,N,12607.96987454,E,4,33,0.5,19.691,M,18.329,M,17.5,4715*40, 09:29:37.66
File: 1552952, $GPGGA,092939.90,3408.37582540,N,12607.97047372,E,4,33,0.5,19.781,M,18.329,M,17.9,4715*40, 09:29:38.16
File: 1552953, $GPGGA,092940.40,3408.37599187,N,12607.97126675,E,4,33,0.5,19.817,M,18.329,M,18.4,4715*40, 09:29:38.59
File: 1552954, $GPGGA,092940.80,3408.37609626,N,12607.97190139,E,4,33,0.5,19.747,M,18.329,M,18.8,4715*4E, 09:29:38.99
File: 1552955, $GPGGA,092941.20,3408.37615787,N,12607.97250092,E,4,33,0.5,19.591,M,18.329,M,19.2,4715*4F, 09:29:39.39
File: 1552956, $GPGGA,092941.70,3408.37615700,N,12607.97316778,E,4,33,0.5,19.320,M,18.329,M,15.7,4715*40, 09:29:39.86
File: 1552957, $GPGGA,092942.10,3408.37610404,N,12607.97365965,E,4,33,0.5,19.095,M,18.329,M,16.1,4715*49, 09:29:40.26
File: 1552958, $GPGGA,092942.60,3408.37602177,N,12607.97429663,E,4,33,0.5,18.854,M,18.329,M,16.6,4715*49, 09:29:40.79
